[
  {
    "type": "Friskis & Svettis",
    "name": "Friskis & Svettis Eriksberg",
    "adress": "Östra Eriksbergsgatan 75, 417 62 Göteborg",
    "latitude": 57.703123,
    "longitude": 11.917549,
    "website": "https://www.friskissvettis.se/goteborg/harfinnsvi/eriksberg"
  },
  {
    "type": "Nordic Wellness",
    "name": "Nordic Wellness Eriksberg",
    "adress": "Östra Eriksbergsgatan 46, 417 63 Göteborg",
    "latitude": 57.70498,
    "longitude": 11.91877,
    "website": "https://nordicwellness.se/vara-klubbar/goteborg/goteborg-eriksberg/"
  },
  {
    "type": "Fitness24Seven",
    "name": "Fitness24Seven",
    "adress": "Vintergatan 4, 417 58 Göteborg",
    "latitude": 57.71011,
    "longitude": 11.92959,
    "website": "https://se.fitness24seven.com/vara-gym/se-vara-gym/goteborg-sannegarden/"
  },
  {
    "type": "Nordic Wellness",
    "name": "Nordic Wellness Lindholmen",
    "adress": "Lindholmsallén 20, 417 55 Göteborg",
    "latitude": 57.70996,
    "longitude": 11.94256,
    "website": "https://nordicwellness.se/vara-klubbar/goteborg/goteborg-lindholmen/"
  },
  {
    "type": "Fysiken",
    "name": "Fysiken Klätterlabbet Centrum",
    "adress": "Elektrovägen 1, 412 58 Göteborg",
    "latitude": 57.68735,
    "longitude": 11.98041,
    "website": "https://fysiken.nu/sv/klatterlabbet/"
  },
  {
    "type": "Tyngdlyftning",
    "name": "Exhale Gym",
    "adress": "Kungshöjdsgatan 8, 411 20 Göteborg",
    "latitude": 57.70183,
    "longitude": 11.96042,
    "website": "https://exhalegym.se/"
  },
  {
    "type": "Fysiken",
    "name": "Fysiken Kaserntorget",
    "adress": "Kaserntorget 11, 411 18 Göteborg",
    "latitude": 57.70314,
    "longitude": 11.96106,
    "website": "https://fysiken.nu/sv/vara-anlaggningar/fysiken-traning/fysiken-kaserntorget/"
  },
  {
    "type": "SATS",
    "name": "SATS Kompassen",
    "adress": "Kyrkogatan 35, 411 08 Göteborg",
    "latitude": 57.70555,
    "longitude": 11.9703,
    "website": "https://www.sats.se/gym/kompassen/"
  },
  {
    "type": "SATS",
    "name": "SATS Eriksberg",
    "adress": "Kolhamnsgatan 3, 417 61 Göteborg",
    "latitude": 57.70555,
    "longitude": 11.9703,
    "website": "https://www.sats.se/gym/kompassen/"
  },
  {
    "type": "SATS",
    "name": "SATS Askim",
    "adress": "Ekonomivägen 6, 436 33 Askim",
    "latitude": 57.64038,
    "longitude": 11.946869,
    "website": "https://www.sats.se/gym/askim/"
  },
  {
    "type": "Grand Fitness",
    "name": "Grand Fitness Övre Husargatan",
    "adress": "Övre Husargatan 4, 411 22 Göteborg",
    "latitude": 57.6941,
    "longitude": 11.95793,
    "website": "https://grandfitness.se/ovre-husargatan/"
  },
  {
    "type": "Funktionell träning",
    "name": "Omnia Gym",
    "adress": "Första Långgatan 20, 413 28 Göteborg",
    "latitude": 57.69965,
    "longitude": 11.94771,
    "website": "https://omniagym.se/"
  },
  {
    "type": "Fysiken",
    "name": "Fysiken Gibraltargatan",
    "adress": "Gibraltargatan 39-41, 412 79 Göteborg",
    "latitude": 57.68188,
    "longitude": 11.98359,
    "website": "https://fysiken.nu/sv/vara-anlaggningar/fysiken-traning/fysiken-gibraltargatan/"
  },
  {
    "type": "Fitness24Seven",
    "name": "Fitness24Seven",
    "adress": "Kungsgatan 15, 411 19 Göteborg",
    "latitude": 57.70366,
    "longitude": 11.9618,
    "website": "https://se.fitness24seven.com/vara-gym/se-vara-gym/goteborg-kungsgatan/"
  },
  {
    "type": "Grand Fitness",
    "name": "Grand Fitness Herkulesgatan",
    "adress": "Herkulesgatan 1, 417 03 Göteborg",
    "latitude": 57.72013,
    "longitude": 11.95131,
    "website": "https://grandfitness.se/herkulesgatan/"
  },
  {
    "type": "Nordic Wellness",
    "name": "Nordic Wellness Örgryte",
    "adress": "Töpelsgatan 7, 416 55 Göteborg",
    "latitude": 57.70067,
    "longitude": 12.02497,
    "website": "https://nordicwellness.se/vara-klubbar/goteborg/goteborg-argryte/"
  },
  {
    "type": "Nordic Wellness",
    "name": "Nordic Wellness Hönö Östra Hamnen",
    "adress": "Östra hamnen 1, 475 40 Hönö",
    "latitude": 57.68402,
    "longitude": 11.6522,
    "website": "https://nordicwellness.se/vara-klubbar/goteborg/hono-astra-hamnen/"
  },
  {
    "type": "Fitness24Seven",
    "name": "Fitness24Seven",
    "adress": "Mölndalsvägen 17, 412 63 Göteborg",
    "latitude": 57.68955,
    "longitude": 11.99386,
    "website": "https://se.fitness24seven.com/vara-gym/se-vara-gym/goteborg-almedal/"
  },
  {
    "type": "Nordic Wellness",
    "name": "Nordic Wellness Centralen",
    "adress": "Odinsgatan 6, 411 03 Göteborg",
    "latitude": 57.70919,
    "longitude": 11.97883,
    "website": "https://nordicwellness.se/vara-klubbar/goteborg/goteborg-centralen-fd-odinsgatan/"
  },
  {
    "type": "Friskis & Svettis",
    "name": "Friskis & Svettis Västra Hamngatan",
    "adress": "Västra Hamngatan 7B, 411 17 Göteborg",
    "latitude": 57.704693,
    "longitude": 11.963389,
    "website": "https://www.friskissvettis.se/goteborg/harfinnsvi/vastrahamngatan/"
  },
  {
    "type": "Friskis & Svettis",
    "name": "Friskis & Svettis Kvillebäcken",
    "adress": "Borstbindaregatan 12B, 417 22 Göteborg",
    "latitude": 57.72108,
    "longitude": 11.94686,
    "website": "https://www.friskissvettis.se/goteborg/harfinnsvi/kvillebacken/"
  },
  {
    "type": "Nordic Wellness",
    "name": "Nordic Wellness Almedal",
    "adress": "Falkenbergsgatan 3, 412 85 Göteborg",
    "latitude": 57.68113,
    "longitude": 12.00043,
    "website": "https://nordicwellness.se/vara-klubbar/goteborg/goteborg-almedal/"
  },
  {
    "type": "Tyngdlyftning",
    "name": "IronWorks Health & Fitness",
    "adress": "E A Rosengrens gata 19, 421 31 Västra Frölunda",
    "latitude": 57.65447,
    "longitude": 11.93582,
    "website": "https://iw24.se/gym-goteborg/"
  },
  {
    "type": "Tyngdlyftning",
    "name": "Totus Fitness",
    "adress": "Herkulesgatan 1, 417 03 Göteborg",
    "latitude": 57.72022,
    "longitude": 11.95115,
    "website": "https://totusfitness.se/"
  },
  {
    "type": "Fitness24Seven",
    "name": "Fitness24Seven",
    "adress": "Skånegatan 1-3, 411 40 Göteborg",
    "latitude": 57.7061,
    "longitude": 11.98439,
    "website": "https://se.fitness24seven.com/vara-gym/se-vara-gym/goteborg-ullevi/"
  },
  {
    "type": "Fitness24Seven",
    "name": "Fitness24Seven",
    "adress": "Anna Branzells Gata, 415 28 Göteborg",
    "latitude": 57.732778,
    "longitude": 12.031389,
    "website": "https://se.fitness24seven.com/vara-gym/se-vara-gym/goteborg-kviberg/"
  },
  {
    "type": "Fitness24Seven",
    "name": "Fitness24Seven",
    "adress": "Kvilletorget 15, 417 04 Göteborg",
    "latitude": 57.719559,
    "longitude": 11.947138,
    "website": "https://se.fitness24seven.com/vara-gym/se-vara-gym/goteborg-kvilletorget/"
  },
  {
    "type": "Fitness24Seven",
    "name": "Fitness24Seven",
    "adress": "Friggagatan 16, 411 01 Göteborg",
    "latitude": 57.71177,
    "longitude": 11.98856,
    "website": "https://se.fitness24seven.com/vara-gym/se-vara-gym/goteborg-stampen/"
  },
  {
    "type": "Funktionell träning",
    "name": "Premium Hälsan Avenyn",
    "adress": "Chalmersgatan 24, 411 35 Göteborg",
    "latitude": 57.69855,
    "longitude": 11.9749,
    "website": "http://avenygym.se/"
  },
  {
    "type": "Nordic Wellness",
    "name": "Nordic Wellness Kviberg Arena",
    "adress": "Krutvägen 2, 415 28 Göteborg",
    "latitude": 57.73812,
    "longitude": 12.03385,
    "website": "https://nordicwellness.se/vara-klubbar/goteborg/goteborg-kviberg-arena/"
  },
  {
    "type": "SATS",
    "name": "SATS Masthugget",
    "adress": "Andra Långgatan 44, 413 27 Göteborg",
    "latitude": 57.69829,
    "longitude": 11.94193,
    "website": "https://www.sats.se/gym/masthugget/"
  },
  {
    "type": "SATS",
    "name": "SATS Mölnlycke",
    "adress": "Hönekullavägen 13, 435 44 Mölnlycke",
    "latitude": 57.65618,
    "longitude": 12.11711,
    "website": "https://www.sats.se/gym/molnlycke/"
  },
  {
    "type": "SATS",
    "name": "SATS Sisjön",
    "adress": "Sisjövägen 49, 436 33 Askim",
    "latitude": 57.63948,
    "longitude": 11.95013,
    "website": "https://www.sats.se/gym/sisjon/"
  },
  {
    "type": "SATS",
    "name": "SATS Valhalla",
    "adress": "Valhallagatan 3, 412 51 Göteborg",
    "latitude": 57.69978,
    "longitude": 11.99008,
    "website": "https://www.sats.se/gym/valhalla/"
  },
  {
    "type": "SATS",
    "name": "SATS Torpavallen",
    "adress": "Torpavallsgatan 4B, 416 73 Göteborg",
    "latitude": 57.72371,
    "longitude": 12.02724,
    "website": "https://www.sats.se/gym/torpavallen/"
  },
  {
    "type": "Nordic Wellness",
    "name": "Nordic Wellness Backaplan",
    "adress": "Gustaf Dalénsgatan 13, 417 05 Göteborg",
    "latitude": 57.724477,
    "longitude": 11.94566,
    "website": "https://nordicwellness.se/vara-klubbar/goteborg/goteborg-backaplan/"
  },
  {
    "type": "Nordic Wellness",
    "name": "Nordic Wellness Kallebäck",
    "adress": "Långfilsgatan 1, 412 77 Göteborg",
    "latitude": 57.68027,
    "longitude": 12.00918,
    "website": "https://nordicwellness.se/vara-klubbar/goteborg/goteborg-kalleback/"
  },
  {
    "type": "Nordic Wellness",
    "name": "Nordic Wellness Dagjämningsgatan",
    "adress": "Dagjämningsgatan 1, 415 36 Göteborg",
    "latitude": 57.75109,
    "longitude": 12.02376,
    "website": "https://nordicwellness.se/vara-klubbar/goteborg/kortedala-dagjamningsgatan/"
  },
  {
    "type": "Nordic Wellness",
    "name": "Nordic Wellness Kortedala Torg",
    "adress": "Kortedala Torg, 415 35, Göteborg",
    "latitude": 57.7513,
    "longitude": 12.03165,
    "website": "https://nordicwellness.se/vara-klubbar/goteborg/kortedala-torg/"
  },
  {
    "type": "Nordic Wellness",
    "name": "Nordic Wellness Fjällgatan",
    "adress": "Fjällgatan 38, 413 17 Göteborg",
    "latitude": 57.69522,
    "longitude": 11.93981,
    "website": "https://nordicwellness.se/vara-klubbar/goteborg/goteborg-fjallgatan/"
  },
  {
    "type": "Nordic Wellness",
    "name": "Nordic Wellness Guldheden",
    "adress": "Doktor Fries Torg 15, 413 23 Göteborg",
    "latitude": 57.68429,
    "longitude": 11.97199,
    "website": "https://nordicwellness.se/vara-klubbar/goteborg/goteborg-guldheden/"
  },
  {
    "type": "Nordic Wellness",
    "name": "Nordic Wellness Billdal Skintebo",
    "adress": "Lilla Skintebovägen 4, 427 34 Billdal",
    "latitude": 57.58979,
    "longitude": 11.93892,
    "website": "https://nordicwellness.se/vara-klubbar/goteborg/billdal-skintebo/"
  },
  {
    "type": "Nordic Wellness",
    "name": "Nordic Wellness Vårväderstorget",
    "adress": "Vårväderstorget 1, 418 31, Göteborg",
    "latitude": 57.71277,
    "longitude": 11.89253,
    "website": "https://nordicwellness.se/vara-klubbar/goteborg/goteborg-varvaderstorget/"
  },
  {
    "type": "Nordic Wellness",
    "name": "Nordic Wellness Floda Centrum",
    "adress": "Rurik Holms väg 4 , 448 30 Floda",
    "latitude": 57.8084,
    "longitude": 12.36235,
    "website": "https://nordicwellness.se/vara-klubbar/goteborg/floda-centrum/"
  },
  {
    "type": "Hälsoklubb",
    "name": "Eminent Hälsostudio",
    "adress": "Vasagatan 43 B, 411 37 Göteborg",
    "latitude": 57.70077,
    "longitude": 11.97554,
    "website": "https://eminent-halsostudio.se/"
  },
  {
    "type": "Nordic Wellness",
    "name": "Nordic Wellness Vasagatan",
    "adress": "Vasagatan 7, 411 24, Göteborg",
    "latitude": 57.69761,
    "longitude": 12.96433,
    "website": "https://nordicwellness.se/vara-klubbar/goteborg/goteborg-vasagatan/"
  },
  {
    "type": "Funktionell träning",
    "name": "Fit4Fight Gym",
    "adress": "Lilla Regementsvägen 20, 415 27 Göteborg",
    "latitude": 57.7382,
    "longitude": 12.0314,
    "website": "https://fit4fightgym.se/"
  },
  {
    "type": "Friskis & Svettis",
    "name": "Friskis & Svettis Valhalla",
    "adress": "Valhallagatan 3, 412 51 Göteborg",
    "latitude": 57.70003,
    "longitude": 11.9911,
    "website": "https://www.friskissvettis.se/goteborg/harfinnsvi/valhalla/"
  },
  {
    "type": "Fitness24Seven",
    "name": "Fitness24Seven",
    "adress": "Hökegatan 30, 416 66 Göteborg",
    "latitude": 57.71545,
    "longitude": 12.00132,
    "website": "https://se.fitness24seven.com/vara-gym/se-vara-gym/goteborg-olskroken/"
  },
  {
    "type": "Funktionell träning",
    "name": "Hela Hälsan",
    "adress": "Torpagatan 8, 416 74 Göteborg",
    "latitude": 57.71826,
    "longitude": 12.02662,
    "website": "https://www.helahalsan.com/"
  },
  {
    "type": "Motionscenter",
    "name": "Länsmansgårdens motionscentrum",
    "adress": "Temperaturgatan 74, 418 41 Göteborg",
    "latitude": 57.73337,
    "longitude": 11.88556,
    "website": "https://goteborg.se/wps/portal/enhetssida/lansmansgardens-motionscentrum/"
  },
  {
    "type": "Funktionell träning",
    "name": "Brick Gym",
    "adress": "August Barks gata 10, 421 32 Västra Frölunda",
    "latitude": 57.64838,
    "longitude": 11.94328,
    "website": "https://brickgym.se/"
  },
  {
    "type": "Motionscenter",
    "name": "Geråshallen",
    "adress": "Ljusårsvägen 54, 415 18 Göteborg",
    "latitude": 57.76595,
    "longitude": 12.05165,
    "website": "https://goteborg.se/wps/portal/enhetssida/gerashallen/"
  },
  {
    "type": "Nordic Wellness",
    "name": "Nordic Wellness Järntorget",
    "adress": "Folkets hus, Olof Palmes plats 1, 413 04 Göteborg",
    "latitude": 57.70072,
    "longitude": 11.95277,
    "website": "https://nordicwellness.se/vara-klubbar/goteborg/goteborg-jarntorget/"
  },
  {
    "type": "SATS",
    "name": "SATS Landala",
    "adress": "Kapellplatsen 4, 411 31 Göteborg",
    "latitude": 57.69319,
    "longitude": 11.97099,
    "website": "https://www.sats.se/gym/landala/"
  },
  {
    "type": "Nordic Wellness",
    "name": "Nordic Wellness Ullevi",
    "adress": "Parkgatan 65, 411 38 Göteborg",
    "latitude": 57.70697,
    "longitude": 11.98011,
    "website": "https://nordicwellness.se/vara-klubbar/goteborg/goteborg-ullevi/"
  },
  {
    "type": "Nordic Wellness",
    "name": "Nordic Wellness Karl Johansgatan",
    "adress": "Karl Johansgatan 94, 414 55, Göteborg",
    "latitude": 57.69281,
    "longitude": 11.91784,
    "website": "https://nordicwellness.se/vara-klubbar/goteborg/goteborg-karl-johansgatan/"
  },
  {
    "type": "Fitness24Seven",
    "name": "Fitness24Seven",
    "adress": "Karl Johansgatan 27, 414 59 Göteborg",
    "latitude": 57.69673,
    "longitude": 11.92586,
    "website": "https://se.fitness24seven.com/vara-gym/se-vara-gym/goteborg-majorna"
  },
  {
    "type": "Crossfit",
    "name": "CrossFit Göta",
    "adress": "Skårs Led 3, 412 63 Göteborg",
    "latitude": 57.68707,
    "longitude": 11.99996,
    "website": "https://www.crossfitgota.se/"
  },
  {
    "type": "Nordic Wellness",
    "name": "Nordic Wellness Tuve Torg",
    "adress": "Tuve torg 8, 417 45 Göteborg",
    "latitude": 57.7559,
    "longitude": 11.92732,
    "website": "https://nordicwellness.se/vara-klubbar/goteborg/goteborg-tuve-torg/"
  },
  {
    "type": "Nordic Wellness",
    "name": "Nordic Wellness Kållered",
    "adress": "Ekenleden 13C, 428 36 Kållered",
    "latitude": 57.60746,
    "longitude": 12.0426,
    "website": "https://nordicwellness.se/vara-klubbar/goteborg/kallered-ekenleden/"
  },
  {
    "type": "Nordic Wellness",
    "name": "Nordic Wellness Stigs Center",
    "adress": "Importgatan 7, 422 46 Hisings Backa",
    "latitude": 57.7468,
    "longitude": 11.99514,
    "website": "https://nordicwellness.se/vara-klubbar/goteborg/goteborg-stigs-center/"
  },
  {
    "type": "Motionscenter",
    "name": "Kristinedals Träningscenter",
    "adress": "Byfogdegatan 4, 415 05 Göteborg",
    "latitude": 57.72688,
    "longitude": 12.01032,
    "website": "https://kristinedal.nu/"
  },
  {
    "type": "Friskis & Svettis",
    "name": "Friskis & Svettis Gårda",
    "adress": "Södra Gubberogatan 4, 416 64 Göteborg",
    "latitude": 57.70855,
    "longitude": 11.9976,
    "website": "https://www.friskissvettis.se/goteborg/harfinnsvi/garda/"
  },
  {
    "type": "Funktionell träning",
    "name": "Omnia Gym",
    "adress": "Södra Vägen 3, 411 35 Göteborg",
    "latitude": 57.70192,
    "longitude": 11.97463,
    "website": "https://omniagym.se/"
  },
  {
    "type": "Hälsoklubb",
    "name": "Hagabadet Haga",
    "adress": "Haga Östergata 6, 413 01 Göteborg",
    "latitude": 57.69925,
    "longitude": 11.95618,
    "website": "https://www.hagabadet.se/"
  },
  {
    "type": "Fitness24Seven",
    "name": "Fitness24Seven",
    "adress": "Länsmanstorget 2, 418 40 Göteborg",
    "latitude": 57.73364,
    "longitude": 11.89307,
    "website": "https://se.fitness24seven.com/vara-gym/se-vara-gym/goteborg-lansmanstorget/"
  },
  {
    "type": "Funktionell träning",
    "name": "Träningsverket",
    "adress": "Gruvgatan 14, 421 30 Västra Frölunda",
    "latitude": 57.66579,
    "longitude": 11.94311,
    "website": "https://traningsverketgbg.com/"
  },
  {
    "type": "Nordic Wellness",
    "name": "Nordic Wellness Linnégatan",
    "adress": "Linnégatan 61, 413 08 Göteborg",
    "latitude": 57.69185,
    "longitude": 11.95198,
    "website": "https://nordicwellness.se/vara-klubbar/goteborg/goteborg-linn%C3%A9gatan/"
  },
  {
    "type": "Motionscenter",
    "name": "Slottsskogsvallens idrottscentrum",
    "adress": "Lars Israel Wahlmans väg 32, 414 76 Göteborg",
    "latitude": 57.67689,
    "longitude": 11.93904,
    "website": "https://goteborg.se/wps/portal/enhetssida/slottsskogsvallens-idrottscentrum/"
  },
  {
    "type": "Nordic Wellness",
    "name": "Nordic Wellness Lunden",
    "adress": "Sankt Pauligatan 9, 416 60 Göteborg",
    "latitude": 57.71297,
    "longitude": 12.00516,
    "website": "https://nordicwellness.se/vara-klubbar/goteborg/goteborg-lunden/"
  },
  {
    "type": "STC",
    "name": "STC Almedal",
    "adress": "Nellickevägen 20-22, 412 63 Göteborg",
    "latitude": 57.68828,
    "longitude": 11.9979,
    "website": "https://www.stc.se/klubbar/almedal/"
  },
  {
    "type": "STC",
    "name": "STC Långedrag",
    "adress": "Redegatan 1, 42677 Västra Frölunda",
    "latitude": 57.67317,
    "longitude": 11.88229,
    "website": "https://www.stc.se/klubbar/langedrag"
  },
  {
    "type": "STC",
    "name": "STC Backa Entré",
    "adress": "Backavägen 3, 41730 Göteborg",
    "latitude": 57.72378,
    "longitude": 11.9583,
    "website": "https://www.stc.se/klubbar/backa-entre/"
  },
  {
    "type": "STC",
    "name": "STC Björkekärr",
    "adress": "Smörslottsgatan 26, 41678 Göteborg",
    "latitude": 57.71579,
    "longitude": 12.0562,
    "website": "https://www.stc.se/klubbar/bjorkekarr/"
  },
  {
    "type": "STC",
    "name": "STC Eriksberg",
    "adress": "Ostindiefararen 37, 41765 Göteborg",
    "latitude": 57.69907,
    "longitude": 11.90985,
    "website": "https://www.stc.se/klubbar/goteborg-eriksberg/"
  },
  {
    "type": "STC",
    "name": "STC Högsbohöjd",
    "adress": "Sjupundsgatan 6, 41481 Göteborg",
    "latitude": 57.67512,
    "longitude": 11.91818,
    "website": "https://www.stc.se/klubbar/goteborg-hogsbohojd/"
  },
  {
    "type": "STC",
    "name": "STC Majorna",
    "adress": "Stortoppsgatan 10, 41457 Göteborg",
    "latitude": 57.6899,
    "longitude": 11.92419,
    "website": "https://www.stc.se/klubbar/goteborg-majorna/"
  },
  {
    "type": "STC",
    "name": "STC Munkebäck",
    "adress": "Gullbergs Strandgata 3-7, 41104 Göteborg",
    "latitude": 57.71378,
    "longitude": 11.9708,
    "website": "https://www.stc.se/klubbar/platinan/"
  },
  {
    "type": "STC",
    "name": "STC Platinan",
    "adress": "Munkebäcks Allé 26, 41673 Göteborg",
    "latitude": 57.72108,
    "longitude": 12.02544,
    "website": "https://www.stc.se/klubbar/goteborg-munkeback/"
  },
  {
    "type": "Fitness24Seven",
    "name": "Fitness24Seven",
    "adress": "Masthuggstorget 2, 413 27 Göteborg",
    "latitude": 57.69878,
    "longitude": 11.94382,
    "website": "https://se.fitness24seven.com/vara-gym/se-vara-gym/goteborg-masthugget/"
  },
  {
    "type": "Hälsoklubb",
    "name": "Hagabadet Drottningtorget",
    "adress": "Östra Larmgatan 4, 411 07 Göteborg",
    "latitude": 57.70687,
    "longitude": 11.9725,
    "website": "https://www.hagabadet.se/"
  },
  {
    "type": "Nordic Wellness",
    "name": "Nordic Wellness Högsbo",
    "adress": "Axel Dahlströms torg 3, 414 80 Göteborg",
    "latitude": 57.67073,
    "longitude": 11.92738,
    "website": "https://nordicwellness.se/vara-klubbar/goteborg/goteborg-hogsbo/"
  },
  {
    "type": "Nordic Wellness",
    "name": "Nordic Wellness Sisjön Datavägen",
    "adress": "Datavägen 4, 436 32 Askim",
    "latitude": 57.64073,
    "longitude": 11.95432,
    "website": "https://nordicwellness.se/vara-klubbar/goteborg/sisjon-datavagen/"
  },
  {
    "type": "Nordic Wellness",
    "name": "Nordic Wellness Sävedalen Glashuset",
    "adress": "Göteborgsvägen 88, 433 63, Sävedalen",
    "latitude": 57.73313,
    "longitude": 12.07628,
    "website": "https://nordicwellness.se/vara-klubbar/goteborg/savedalen-glashuset/"
  },
  {
    "type": "Crossfit",
    "name": "421 CrossFit Göteborg",
    "adress": "Datavägen 45, 436 32 Askim",
    "latitude": 57.63947,
    "longitude": 11.96123,
    "website": "https://421crossfit.se/"
  },
  {
    "type": "Crossfit",
    "name": "Vagnhallen CrossFit",
    "adress": "Banehagsliden 5, 414 51 Göteborg",
    "latitude": 57.68838,
    "longitude": 11.90619,
    "website": "http://www.vagnhallencrossfit.se/"
  },
  {
    "type": "Nordic Wellness",
    "name": "Nordic Wellness Olskroken",
    "adress": "Redbergsvägen 2, 416 65 Göteborg",
    "latitude": 57.71477,
    "longitude": 11.99687,
    "website": "https://nordicwellness.se/vara-klubbar/goteborg/goteborg-olskroken/"
  },
  {
    "type": "Friskis & Svettis",
    "name": "Friskis & Svettis Åby Arena",
    "adress": "Åbyvägen 12, 431 62 Mölndal",
    "latitude": 57.64898,
    "longitude": 12.00354,
    "website": "https://www.friskissvettis.se/goteborg/harfinnsvi/aby-arena"
  },
  {
    "type": "Friskis & Svettis",
    "name": "Friskis & Svettis Johanneberg",
    "adress": "Gibraltargatan 3, 412 58 Göteborg",
    "latitude": 57.6917,
    "longitude": 11.97758,
    "website": "https://www.friskissvettis.se/goteborg/harfinnsvi/johanneberg"
  },
  {
    "type": "Fitness24Seven",
    "name": "Fitness24Seven",
    "adress": "Rullagergatan 4, 415 26 Göteborg",
    "latitude": 57.72888,
    "longitude": 12.01332,
    "website": "https://se.fitness24seven.com/vara-gym/se-vara-gym/goteborg-gamlestaden"
  },
  {
    "type": "Nordic Wellness",
    "name": "Nordic Wellness Marklandsgatan",
    "adress": "Marklandsgatan 3, 414 77 Göteborg",
    "latitude": 57.67409,
    "longitude": 11.9345,
    "website": "https://nordicwellness.se/vara-klubbar/goteborg/goteborg-marklandsgatan/"
  },
  {
    "type": "Nordic Wellness",
    "name": "Nordic Wellness Landvetter Centrum",
    "adress": "Skansgränd 4, 438 32 Landvetter",
    "latitude": 57.68665,
    "longitude": 12.21127,
    "website": "https://nordicwellness.se/vara-klubbar/goteborg/landvetter-centrum/"
  },
  {
    "type": "Nordic Wellness",
    "name": "Nordic Wellness Lerum Göteborgsvägen",
    "adress": "Göteborgsvägen 3, 443 30 Lerum",
    "latitude": 57.76718,
    "longitude": 12.26501,
    "website": "https://nordicwellness.se/vara-klubbar/goteborg/lerum-goteborgsvagen/"
  },
  {
    "type": "Nordic Wellness",
    "name": "Nordic Wellness Lindome Centrum",
    "adress": "Almåsgången 1, 437 30 , Lindome",
    "latitude": 57.57742,
    "longitude": 12.08949,
    "website": "https://nordicwellness.se/vara-klubbar/goteborg/lindome-centrum/"
  },
  {
    "type": "Funktionell träning",
    "name": "Holmens FitnessCenter",
    "adress": "Kämpegatan 16, 411 04 Göteborg",
    "latitude": 57.71429,
    "longitude": 11.9748,
    "website": "https://www.holmensfitness.se/"
  },
  {
    "type": "Tyngdlyftning",
    "name": "Maximus Gym Brunnsbo",
    "adress": "Folkvisegatan 15, 422 41 Hisings Backa",
    "latitude": 57.73171,
    "longitude": 11.97479,
    "website": "https://www.maximusgym.se/"
  },
  {
    "type": "SATS",
    "name": "SATS Torslanda",
    "adress": "Sörredsbacken 20, 418 78 Göteborg",
    "latitude": 57.71977,
    "longitude": 11.85034,
    "website": "https://www.sats.se/gym/torslanda/"
  },
  {
    "type": "SATS",
    "name": "SATS Gamlestaden",
    "adress": "Gamlestads Torg 7, 415 12 Göteborg",
    "latitude": 57.72789,
    "longitude": 11.00495,
    "website": "https://www.sats.se/gym/gamlestaden/"
  },
  {
    "type": "SATS",
    "name": "SATS Hovås",
    "adress": "Björklundabacken 2, 436 57 Hovås",
    "latitude": 57.60091,
    "longitude": 11.95234,
    "website": "https://www.sats.se/gym/hovas/"
  },
  {
    "type": "Fitness24Seven",
    "name": "Fitness24Seven",
    "adress": "Lergöksgatan 6, 421 50 Västra Frölunda",
    "latitude": 57.655743,
    "longitude": 11.8993063,
    "website": "https://se.fitness24seven.com/vara-gym/se-vara-gym/goteborg-frolunda/"
  },
  {
    "type": "Friskis & Svettis",
    "name": "Friskis & Svettis Frölunda",
    "adress": "Lergöksgatan 8, 421 50 Västra Frölunda",
    "latitude": 57.65619,
    "longitude": 11.90085,
    "website": "https://www.friskissvettis.se/goteborg/harfinnsvi/frolunda"
  },
  {
    "type": "Friskis & Svettis",
    "name": "Friskis & Svettis Nya Hovås",
    "adress": "Hedtångsvägen 20, 436 53 Hovås",
    "latitude": 57.59849,
    "longitude": 11.95323,
    "website": "https://www.friskissvettis.se/goteborg/harfinnsvi/nya-hovas"
  },
  {
    "type": "Friskis & Svettis",
    "name": "Friskis & Svettis Nya Hovås",
    "adress": "Hedtångsvägen 20, 436 53 Hovås",
    "latitude": 57.59849,
    "longitude": 11.95323,
    "website": "https://www.friskissvettis.se/goteborg/harfinnsvi/nya-hovas"
  },
  {
    "name": "United Training",
    "adress": "Oskarsgatan 6A, 414 63 Göteborg",
    "latitude": 57.69972,
    "longitude": 11.93793
  },
  {
    "type": "Nordic Wellness",
    "name": "Nordic Wellness Lundby",
    "adress": "Rödlönnsgången 44, 417 11 Göteborg",
    "latitude": 57.71901,
    "longitude": 11.92729,
    "website": "https://nordicwellness.se/vara-klubbar/goteborg/goteborg-lundby/"
  },
  {
    "type": "Nordic Wellness",
    "name": "Nordic Wellness Torslanda Amhult",
    "adress": "Gamla flygplatsvägen 26, 423 37 Torslanda",
    "latitude": 57.71028,
    "longitude": 11.77991,
    "website": "https://nordicwellness.se/vara-klubbar/goteborg/torslanda-amhult/"
  },
  {
    "type": "Nordic Wellness",
    "name": "Nordic Wellness Torslanda Torg",
    "adress": "Torslanda Torg 1, 423 32, Torslanda",
    "latitude": 57.72351,
    "longitude": 11.76725,
    "website": "https://nordicwellness.se/vara-klubbar/goteborg/torslanda-torg/"
  },
  {
    "type": "Nordic Wellness",
    "name": "Nordic Wellness Frölunda",
    "adress": "Kontrabasgatan 9, 421 50 Västra Frölunda",
    "latitude": 57.65649,
    "longitude": 11.89892,
    "website": "https://nordicwellness.se/vara-klubbar/goteborg/frolunda-kontrabasgatan/"
  },
  {
    "type": "Nordic Wellness",
    "name": "Nordic Wellness Sisjön 421",
    "adress": "KOtto Elanders gata 6, 421 32 Västra Frölunda",
    "latitude": 57.65085,
    "longitude": 11.94739,
    "website": "https://nordicwellness.se/vara-klubbar/goteborg/sisjon-421/"
  },
  {
    "type": "Nordic Wellness",
    "name": "Nordic Wellness Gråbo Centrum",
    "adress": "Mjörnbotorget, 443 42 Gråbo",
    "latitude": 57.83675,
    "longitude": 12.29941,
    "website": "https://nordicwellness.se/vara-klubbar/goteborg/grabo-centrum/"
  },
  {
    "type": "Nordic Wellness",
    "name": "Nordic Wellness Frölunda Torg",
    "adress": "Frölunda Torg, 421 44, Västra Frölunda",
    "latitude": 57.65213,
    "longitude": 11.91442,
    "website": "https://nordicwellness.se/vara-klubbar/goteborg/frolunda-torg/"
  },
  {
    "type": "Nordic Wellness",
    "name": "Nordic Wellness Domkyrkan",
    "adress": "Drottninggatan 16, 411 14 Göteborg",
    "latitude": 57.70535,
    "longitude": 11.96465,
    "website": "https://nordicwellness.se/vara-klubbar/goteborg/goteborg-domkyrkan/"
  },
  {
    "type": "Fitness24Seven",
    "name": "Fitness24Seven",
    "adress": "Brogatan 9, 431 30 Mölndal",
    "latitude": 57.65555,
    "longitude": 12.01572,
    "website": "https://se.fitness24seven.com/vara-gym/se-vara-gym/molndal-centrum/"
  },
  {
    "type": "Nordic Wellness",
    "name": "Nordic Wellness Mölndal Galleria",
    "adress": "Brogatan 17, 431 31 Mölndal",
    "latitude": 57.65467,
    "longitude": 12.01262,
    "website": "https://nordicwellness.se/vara-klubbar/goteborg/molndal-galleria/"
  },
  {
    "type": "Nordic Wellness",
    "name": "Nordic Wellness Krokslätt",
    "adress": "Bergskroken 3, 431 37 Mölndal",
    "latitude": 57.66901,
    "longitude": 12.01025,
    "website": "https://nordicwellness.se/vara-klubbar/goteborg/krokslatts-fabriker/"
  },
  {
    "type": "STC",
    "name": "STC",
    "adress": "Ragnar Thorngrens Gata 4, 431 62 Mölndal",
    "latitude": 57.65054,
    "longitude": 11.99348,
    "website": "https://www.stc.se/klubbar/aby/"
  },
  {
    "type": "Crossfit",
    "name": "Superb CrossFit Mölndal",
    "adress": "Åbäcksgatan 8a, 431 67 Mölndal",
    "latitude": 57.67368,
    "longitude": 12.00412,
    "website": "https://www.superbcf.se/"
  },
  {
    "type": "STC",
    "name": "STC",
    "adress": "Flöjelbergsgatan 20B, 431 37 Mölndal",
    "latitude": 57.67553,
    "longitude": 12.00914,
    "website": "https://www.stc.se/klubbar/molndal-flojelbergsgatan/"
  },
  {
    "type": "Crossfit",
    "name": "Gothenburg Functional Fitness",
    "adress": "Flöjelbergsgatan 7B, 431 37 Mölndal",
    "latitude": 57.67046,
    "longitude": 12.01553,
    "website": "https://gothenburgfunctionalfitness.se/"
  },
  {
    "type": "Crossfit",
    "name": "CrossFit Gårda",
    "adress": "Gamlestadsvägen 4C, 415 02 Göteborg",
    "latitude": 57.72666,
    "longitude": 12.00686,
    "website": "http://crossfitgarda.se/"
  },
  {
    "type": "Crossfit",
    "name": "CrossFit Göta",
    "adress": "Oskarsgatan 6B, 414 63 Göteborg",
    "latitude": 57.69977,
    "longitude": 11.93748,
    "website": "https://www.crossfitgota.se/"
  },
  {
    "type": "Crossfit",
    "name": "CrossFit Neon",
    "adress": "Lilla Regementsvägen 20, 415 27 Göteborg",
    "latitude": 57.73831,
    "longitude": 12.03131,
    "website": "https://crossfitneon.com/"
  },
  {
    "type": "Crossfit",
    "name": "Superb Crossfit Lindholmen",
    "adress": "Bror Nilssons gata 4, 417 55 Göteborg",
    "latitude": 57.70723,
    "longitude": 11.94626,
    "website": "https://www.superbcf.se/"
  },
  {
    "type": "Crossfit",
    "name": "CrossFit Metalbox",
    "adress": "E A Rosengrens gata 8, 421 31 Västra Frölunda",
    "latitude": 57.65819,
    "longitude": 11.93714,
    "website": "https://crossfitmetalbox.com/"
  },
  {
    "type": "Crossfit",
    "name": "CrossFit Västkusten",
    "adress": "Kabelvägen 4, 435 33 Mölnlycke",
    "latitude": 57.667792,
    "longitude": 12.11441,
    "website": "https://www.crossfitvastkusten.com/"
  },
  {
    "type": "Tyngdlyftning",
    "name": "Atletakademin",
    "adress": "Gamla Kronvägen 92, 433 38 Partille",
    "latitude": 57.74125,
    "longitude": 12.12159,
    "website": "https://www.atletakademin.se/"
  },
  {
    "type": "Crossfit",
    "name": "Crossfit Flygtornet",
    "adress": "Flygmotorsvägen 3, 423 37 Torslanda",
    "latitude": 57.71551,
    "longitude": 11.77698,
    "website": "http://crossfitflygtornet.com/"
  },
  {
    "type": "Tyngdlyftning",
    "name": "Göteborgs styrkelyftarklubb",
    "adress": "Importgatan 2, 422 46 Hisings Backa",
    "latitude": 57.74746,
    "longitude": 11.9949,
    "website": "https://www.gsk.nu/"
  },
  {
    "type": "Tyngdlyftning",
    "name": "Göteborg Kraftsportklubb",
    "adress": "Karl Johansgatan 152, 414 51 Göteborg",
    "latitude": 57.68647,
    "longitude": 11.90765,
    "website": "https://goteborgkk.se/"
  },
  {
    "type": "Nordic Wellness",
    "name": "Nordic Wellness Angered Centrum",
    "adress": "Angereds torg 1, 424 65 Angered",
    "latitude": 57.79702,
    "longitude": 12.05075,
    "website": "https://nordicwellness.se/vara-klubbar/goteborg/angered-centrum/"
  },
  {
    "type": "Nordic Wellness",
    "name": "Nordic Wellness Partille Mellbyvägen",
    "adress": "Mellbyvägen 21-23, 433 30 Partille",
    "latitude": 57.74025,
    "longitude": 12.09276,
    "website": "https://nordicwellness.se/vara-klubbar/goteborg/partille-mellbyvagen/"
  },
  {
    "type": "Nordic Wellness",
    "name": "Nordic Wellness Mölnlycke Centrum",
    "adress": "Rörsvängen 17, 435 35 Mölnlycke",
    "latitude": 57.65787,
    "longitude": 12.12079,
    "website": "https://nordicwellness.se/vara-klubbar/goteborg/molnlycke-centrum/"
  },
  {
    "type": "Fitness24Seven",
    "name": "Fitness24Seven",
    "adress": "Lennart Kvarnströms Plats 8C, 435 30 Mölnlycke",
    "latitude": 57.65919,
    "longitude": 12.11738,
    "website": "https://se.fitness24seven.com/vara-gym/se-vara-gym/molnlycke-centrum"
  },
  {
    "type": "Friskis & Svettis",
    "name": "Friskis & Svettis Mölnlycke",
    "adress": "Långenäsvägen 2, 435 35 Mölnlycke",
    "latitude": 57.65919,
    "longitude": 12.11738,
    "website": "https://www.friskissvettis.se/goteborg/harfinnsvi/molnlycke"
  },
  {
    "type": "Friskis & Svettis",
    "name": "Friskis & Svettis Majorna",
    "adress": "Karl Johansgatan 152, 414 50 Göteborg",
    "latitude": 57.68673,
    "longitude": 11.90815,
    "website": "https://www.friskissvettis.se/goteborg/harfinnsvi/majorna"
  },
  {
    "type": "Friskis & Svettis",
    "name": "Friskis & Svettis Torslanda",
    "adress": "Postflyget 4, 423 37 Torslanda",
    "latitude": 57.70896,
    "longitude": 11.77874,
    "website": "https://www.friskissvettis.se/goteborg/harfinnsvi/torslanda"
  }
]
